[
    {
        "lat": 52.0293905,
        "lon": 104.0807886,
        "id": 20399,
        "name": "РАССОХА"
    },
    {
        "lat": 51.8007008,
        "lon": 104.5705978,
        "id": 20437,
        "name": "РЕЧ. ПЫЛОВКА"
    },
    {
        "lat": 51.8520912,
        "lon": 104.7119319,
        "id": 20439,
        "name": "ЛИСТВЕНИЧНЫЙ"
    },
    {
        "lat": 51.8734459,
        "lon": 104.7928567,
        "id": 20443,
        "name": "МАЛ.БАРАНЧИК"
    },
    {
        "lat": 51.7878284,
        "lon": 104.2171652,
        "id": 20461,
        "name": "Р. МАРИТУЙКА"
    },
    {
        "lat": 51.7605882,
        "lon": 104.1004014,
        "id": 20465,
        "name": "БАКЛАНЬ"
    },
    {
        "lat": 51.7568867,
        "lon": 104.0181931,
        "id": 20466,
        "name": "ПЫЛОВКА"
    },
    {
        "lat": 51.7286799,
        "lon": 103.7581751,
        "id": 20468,
        "name": "ГАЛ.СОСНОВАЯ"
    },
    {
        "lat": 51.8000549,
        "lon": 104.464525,
        "id": 20473,
        "name": "ШУМИХА"
    },
    {
        "lat": 51.8042184,
        "lon": 104.3980203,
        "id": 20474,
        "name": "ПОНОМАРЁВКА"
    },
    {
        "lat": 51.7988089,
        "lon": 104.3553537,
        "id": 20475,
        "name": "ПОЛОВИННАЯ"
    },
    {
        "lat": 55.7662673,
        "lon": 109.5468581,
        "id": 19910,
        "name": "БП 1084 КМ"
    },
    {
        "lat": 56.2867901,
        "lon": 113.3428075,
        "id": 40066,
        "name": "ИТЫКИТ"
    },
    {
        "lat": 56.7461451,
        "lon": 106.5040767,
        "id": 19888,
        "name": "ЗВЕЗДНАЯ"
    },
    {
        "lat": 56.8440539,
        "lon": 106.227892,
        "id": 19889,
        "name": "ЧУДНИЧНЫЙ"
    },
    {
        "lat": 56.375676,
        "lon": 107.0725042,
        "id": 19891,
        "name": "НЕБЕЛЬ"
    },
    {
        "lat": 56.0804317,
        "lon": 107.6804856,
        "id": 19893,
        "name": "ОКУНАЙСКИЙ"
    },
    {
        "lat": 55.9091783,
        "lon": 107.7990733,
        "id": 19894,
        "name": "УЛЬКАН"
    },
    {
        "lat": 55.8537289,
        "lon": 108.006295,
        "id": 19895,
        "name": "УМБЕЛЛА"
    },
    {
        "lat": 55.7093477,
        "lon": 109.0722764,
        "id": 19900,
        "name": "ГОУДЖЕКИТ"
    },
    {
        "lat": 55.7559962,
        "lon": 109.2744649,
        "id": 19901,
        "name": "ТЫЯ"
    },
    {
        "lat": 55.7642821,
        "lon": 109.5433252,
        "id": 19911,
        "name": "МОЛОКОН"
    },
    {
        "lat": 55.8116596,
        "lon": 109.6036596,
        "id": 19912,
        "name": "НИЖНЕАНГАРСК"
    },
    {
        "lat": 55.8753507,
        "lon": 109.7590213,
        "id": 19917,
        "name": "ОП 1103 КМ"
    },
    {
        "lat": 55.8502398,
        "lon": 109.6793016,
        "id": 19918,
        "name": "ОП 1095 КМ"
    },
    {
        "lat": 55.9308565,
        "lon": 110.1000506,
        "id": 19919,
        "name": "КИЧЕРА"
    },
    {
        "lat": 55.93933,
        "lon": 110.3396389,
        "id": 19920,
        "name": "ДЗЕЛИНДА"
    },
    {
        "lat": 55.9514563,
        "lon": 110.649208,
        "id": 19921,
        "name": "КИРОН"
    },
    {
        "lat": 56.163589,
        "lon": 111.5267563,
        "id": 19925,
        "name": "АНАМАКИТ"
    },
    {
        "lat": 56.150056,
        "lon": 111.7299035,
        "id": 19926,
        "name": "НОВЫЙ УОЯН"
    },
    {
        "lat": 56.259399,
        "lon": 112.8223733,
        "id": 19927,
        "name": "КЮХЕЛЬБЕКЕРСКАЯ"
    },
    {
        "lat": 56.2013233,
        "lon": 112.5668521,
        "id": 19928,
        "name": "ЧУРО"
    },
    {
        "lat": 56.2056874,
        "lon": 112.3495343,
        "id": 19929,
        "name": "ЯНЧУЙ"
    },
    {
        "lat": 56.1611851,
        "lon": 111.9963883,
        "id": 19930,
        "name": "БАКАНЫ"
    },
    {
        "lat": 56.3284008,
        "lon": 113.2226378,
        "id": 19932,
        "name": "АНГАРАКАН"
    },
    {
        "lat": 56.1924229,
        "lon": 113.5556799,
        "id": 19933,
        "name": "ОКУСИКАН"
    },
    {
        "lat": 56.7999267,
        "lon": 118.2749437,
        "id": 19934,
        "name": "НОВАЯ ЧАРА"
    },
    {
        "lat": 56.7414251,
        "lon": 117.970616,
        "id": 19935,
        "name": "САКУКАН"
    },
    {
        "lat": 56.5888882,
        "lon": 117.2985587,
        "id": 19938,
        "name": "КОДАР"
    },
    {
        "lat": 56.4537658,
        "lon": 116.6804697,
        "id": 19941,
        "name": "БАЛБУХТА"
    },
    {
        "lat": 56.3595305,
        "lon": 114.8357715,
        "id": 19944,
        "name": "ТАКСИМО"
    },
    {
        "lat": 57.0000826,
        "lon": 118.7682151,
        "id": 19946,
        "name": "ИКАБЬЯ"
    },
    {
        "lat": 57.0170907,
        "lon": 119.3474701,
        "id": 19952,
        "name": "МУРУРИН"
    },
    {
        "lat": 56.915634,
        "lon": 118.532989,
        "id": 19955,
        "name": "КЕМЕН"
    },
    {
        "lat": 56.1681076,
        "lon": 113.6721095,
        "id": 19958,
        "name": "СЕВЕРОМУЙСК"
    },
    {
        "lat": 56.1718202,
        "lon": 113.5579952,
        "id": 19959,
        "name": "КАЗАНКАН"
    },
    {
        "lat": 56.1714117,
        "lon": 113.5375317,
        "id": 19960,
        "name": "ГОРЯЧИЙ КЛЮЧ"
    },
    {
        "lat": 51.4676317,
        "lon": 114.609853,
        "id": 19961,
        "name": "ПЕРЕВАЛ"
    },
    {
        "lat": 56.2892279,
        "lon": 113.3750604,
        "id": 19962,
        "name": "ОСЫПНОЙ"
    },
    {
        "lat": 56.3054613,
        "lon": 114.3326065,
        "id": 19963,
        "name": "МУЯКАН"
    },
    {
        "lat": 56.2432076,
        "lon": 114.0869336,
        "id": 19964,
        "name": "УЛЬГИ"
    },
    {
        "lat": 56.1912233,
        "lon": 113.8508327,
        "id": 19965,
        "name": "АРКУМ"
    },
    {
        "lat": 56.322857,
        "lon": 116.0749301,
        "id": 19967,
        "name": "КУАНДА"
    },
    {
        "lat": 56.2397456,
        "lon": 115.8544507,
        "id": 19968,
        "name": "КОЙРА"
    },
    {
        "lat": 56.2126234,
        "lon": 115.6922165,
        "id": 19969,
        "name": "ШИВЕРЫ"
    },
    {
        "lat": 55.9386325,
        "lon": 98.000692,
        "id": 20089,
        "name": "ТАЙШЕТ"
    },
    {
        "lat": 55.8920001,
        "lon": 98.1014581,
        "id": 20091,
        "name": "ЛАВРЕНТЬЕВО"
    },
    {
        "lat": 55.9267312,
        "lon": 98.0221117,
        "id": 20095,
        "name": "ОП 4518 КМ"
    },
    {
        "lat": 56.0407937,
        "lon": 97.6355361,
        "id": 20099,
        "name": "ЮРТЫ"
    },
    {
        "lat": 55.7929049,
        "lon": 98.1861823,
        "id": 20103,
        "name": "БАЙРОНОВКА"
    },
    {
        "lat": 55.7373383,
        "lon": 98.2570308,
        "id": 20104,
        "name": "ШЕЛЕХОВО"
    },
    {
        "lat": 55.7119007,
        "lon": 98.3965271,
        "id": 20106,
        "name": "РАЗГОН"
    },
    {
        "lat": 55.6683671,
        "lon": 98.4575512,
        "id": 20107,
        "name": "ОБЛЕПИХА"
    },
    {
        "lat": 55.6180531,
        "lon": 98.6209174,
        "id": 20108,
        "name": "МОХОВОЙ"
    },
    {
        "lat": 55.6003346,
        "lon": 98.656594,
        "id": 20110,
        "name": "ОП 4584 КМ"
    },
    {
        "lat": 55.2956043,
        "lon": 98.6923561,
        "id": 20111,
        "name": "ОП 4617 КМ"
    },
    {
        "lat": 55.3985597,
        "lon": 98.637023,
        "id": 20114,
        "name": "ОП 4604 КМ"
    },
    {
        "lat": 55.4658102,
        "lon": 98.6228956,
        "id": 20115,
        "name": "АЛГАШЕТ"
    },
    {
        "lat": 55.3705029,
        "lon": 98.6471845,
        "id": 20116,
        "name": "ЗАМЗОР"
    },
    {
        "lat": 55.2517315,
        "lon": 98.7743723,
        "id": 20120,
        "name": "БОЛОТНЫЙ"
    },
    {
        "lat": 55.2042647,
        "lon": 98.8007816,
        "id": 20121,
        "name": "КАМЫШЕТ"
    },
    {
        "lat": 55.1259073,
        "lon": 98.8572566,
        "id": 20122,
        "name": "ХОХЛУША"
    },
    {
        "lat": 55.0331746,
        "lon": 98.8274866,
        "id": 20126,
        "name": "ОП 4655 КМ"
    },
    {
        "lat": 54.9959684,
        "lon": 98.8582027,
        "id": 20127,
        "name": "МАРА"
    },
    {
        "lat": 54.9648839,
        "lon": 98.9388651,
        "id": 20129,
        "name": "КУРЯТ"
    },
    {
        "lat": 54.9019815,
        "lon": 99.0123355,
        "id": 20131,
        "name": "ОП 4677 КМ"
    },
    {
        "lat": 54.8933952,
        "lon": 99.0278255,
        "id": 20132,
        "name": "НИЖНЕУДИНСК"
    },
    {
        "lat": 54.8599472,
        "lon": 99.0910098,
        "id": 20133,
        "name": "РУБАХИНО"
    },
    {
        "lat": 54.8319687,
        "lon": 99.1915487,
        "id": 20135,
        "name": "МУКСУТ"
    },
    {
        "lat": 54.8075351,
        "lon": 99.2903204,
        "id": 20137,
        "name": "ТАЙГИНСКИЙ"
    },
    {
        "lat": 54.8200075,
        "lon": 99.2445178,
        "id": 20138,
        "name": "ОП 4696 КМ"
    },
    {
        "lat": 54.7916118,
        "lon": 99.3416135,
        "id": 20139,
        "name": "ХИНГУЙ"
    },
    {
        "lat": 54.7429373,
        "lon": 99.4965525,
        "id": 20141,
        "name": "КАДУЙ"
    },
    {
        "lat": 54.7345255,
        "lon": 99.5800654,
        "id": 20142,
        "name": "ОП 4721 КМ"
    },
    {
        "lat": 54.7048192,
        "lon": 99.6331332,
        "id": 20144,
        "name": "ХУДОЕЛАНСКАЯ"
    },
    {
        "lat": 54.6848691,
        "lon": 99.7073312,
        "id": 20145,
        "name": "ПОБЕДА"
    },
    {
        "lat": 54.650812,
        "lon": 99.7666266,
        "id": 20146,
        "name": "ОП 4737 КМ"
    },
    {
        "lat": 54.6313025,
        "lon": 99.8241721,
        "id": 20147,
        "name": "ОП 4742 КМ"
    },
    {
        "lat": 54.6337123,
        "lon": 99.8110141,
        "id": 20148,
        "name": "ВЕРШИНА"
    },
    {
        "lat": 54.6377266,
        "lon": 99.9757945,
        "id": 20151,
        "name": "ВАРЯГ"
    },
    {
        "lat": 54.62993,
        "lon": 100.132411,
        "id": 20152,
        "name": "БУДАГОВО"
    },
    {
        "lat": 54.6183784,
        "lon": 100.2007375,
        "id": 20153,
        "name": "ОП 4768 КМ"
    },
    {
        "lat": 54.6357054,
        "lon": 100.324968,
        "id": 20154,
        "name": "УТАЙ"
    },
    {
        "lat": 54.6399953,
        "lon": 100.4274304,
        "id": 20155,
        "name": "ОП 4784 КМ"
    },
    {
        "lat": 54.5947597,
        "lon": 100.5362442,
        "id": 20158,
        "name": "ТУЛУН"
    },
    {
        "lat": 54.5337318,
        "lon": 100.6550642,
        "id": 20161,
        "name": "НЮРА"
    },
    {
        "lat": 54.5198744,
        "lon": 100.6893714,
        "id": 20162,
        "name": "ОП 4811 КМ"
    },
    {
        "lat": 54.4543954,
        "lon": 100.8919134,
        "id": 20166,
        "name": "ШУБА"
    },
    {
        "lat": 54.4547767,
        "lon": 101.0473604,
        "id": 20168,
        "name": "ШЕРАГУЛЬ"
    },
    {
        "lat": 54.4442511,
        "lon": 101.2808222,
        "id": 20170,
        "name": "ОП 4853 КМ"
    },
    {
        "lat": 54.431656,
        "lon": 101.3014312,
        "id": 20172,
        "name": "МИНГАТУЙ"
    },
    {
        "lat": 54.3597022,
        "lon": 101.4633082,
        "id": 20174,
        "name": "ОП 4870 КМ"
    },
    {
        "lat": 54.3249167,
        "lon": 101.5027334,
        "id": 20175,
        "name": "КУЙТУН"
    },
    {
        "lat": 54.2438385,
        "lon": 101.6484397,
        "id": 20177,
        "name": "ХАРИК"
    },
    {
        "lat": 54.1958589,
        "lon": 101.7160749,
        "id": 20178,
        "name": "ОП 4895 КМ"
    },
    {
        "lat": 54.0997553,
        "lon": 101.8796286,
        "id": 20182,
        "name": "ОП 4911 КМ"
    },
    {
        "lat": 54.0414157,
        "lon": 101.9582439,
        "id": 20183,
        "name": "ПЕРЕВОЗ"
    },
    {
        "lat": 54.0040705,
        "lon": 101.9936571,
        "id": 20185,
        "name": "ОП 4925 КМ"
    },
    {
        "lat": 53.986449,
        "lon": 102.0103658,
        "id": 20187,
        "name": "ОП 4927 КМ"
    },
    {
        "lat": 53.9252221,
        "lon": 102.0514613,
        "id": 20188,
        "name": "ЗИМА"
    },
    {
        "lat": 53.8976424,
        "lon": 102.0905721,
        "id": 20189,
        "name": "ОКА"
    },
    {
        "lat": 53.754328,
        "lon": 102.241,
        "id": 20191,
        "name": "ДЕЛЮР"
    },
    {
        "lat": 53.879748,
        "lon": 102.1174774,
        "id": 20192,
        "name": "ЧИРКИНО"
    },
    {
        "lat": 51.5517938,
        "lon": 111.1797193,
        "id": 20193,
        "name": "ХАРАГУН"
    },
    {
        "lat": 56.1666163,
        "lon": 98.3124323,
        "id": 20197,
        "name": "ОП 38 КМ"
    },
    {
        "lat": 56.1433848,
        "lon": 98.4264212,
        "id": 20200,
        "name": "ТОПОРОК"
    },
    {
        "lat": 56.118161,
        "lon": 98.4879177,
        "id": 20201,
        "name": "ОП 53 КМ"
    },
    {
        "lat": 56.1192699,
        "lon": 98.5379932,
        "id": 20202,
        "name": "НЕВЕЛЬСКАЯ"
    },
    {
        "lat": 56.1756118,
        "lon": 98.720029,
        "id": 20204,
        "name": "РЗД № 6"
    },
    {
        "lat": 56.1764351,
        "lon": 99.1191369,
        "id": 20210,
        "name": "ОП 104 КМ"
    },
    {
        "lat": 56.1623021,
        "lon": 99.1493308,
        "id": 20211,
        "name": "РЗД № 9"
    },
    {
        "lat": 56.1159553,
        "lon": 99.2746121,
        "id": 20214,
        "name": "НОВОЧУНКА"
    },
    {
        "lat": 56.0812047,
        "lon": 99.3918687,
        "id": 20216,
        "name": "ОП 125 КМ"
    },
    {
        "lat": 56.0707659,
        "lon": 99.548959,
        "id": 20218,
        "name": "ОП 136 КМ"
    },
    {
        "lat": 56.0829392,
        "lon": 99.6385733,
        "id": 20219,
        "name": "ЧУНА"
    },
    {
        "lat": 56.085186,
        "lon": 99.6652633,
        "id": 20220,
        "name": "ДЕПО"
    },
    {
        "lat": 56.0894037,
        "lon": 99.7345081,
        "id": 20221,
        "name": "ОП 153 КМ"
    },
    {
        "lat": 56.1243555,
        "lon": 99.7714472,
        "id": 20222,
        "name": "ИЗЫКАН"
    },
    {
        "lat": 56.1704011,
        "lon": 99.946523,
        "id": 20225,
        "name": "ТАРГИЗ"
    },
    {
        "lat": 56.1323108,
        "lon": 100.0595899,
        "id": 20226,
        "name": "ЧУКША"
    },
    {
        "lat": 56.2755958,
        "lon": 100.618897,
        "id": 20229,
        "name": "ОГНЕВКА"
    },
    {
        "lat": 56.2324441,
        "lon": 100.7716849,
        "id": 20230,
        "name": "РЗД № 18"
    },
    {
        "lat": 56.144011,
        "lon": 101.0218133,
        "id": 20233,
        "name": "БАЛАГА"
    },
    {
        "lat": 56.1178173,
        "lon": 101.1695601,
        "id": 20234,
        "name": "ВИХОРЕВКА"
    },
    {
        "lat": 56.1286596,
        "lon": 101.368274,
        "id": 20236,
        "name": "МОРГУДОН"
    },
    {
        "lat": 56.085186,
        "lon": 99.6652633,
        "id": 20237,
        "name": "ДЕПО"
    },
    {
        "lat": 56.1106556,
        "lon": 101.2101828,
        "id": 20238,
        "name": "ОП 272 КМ"
    },
    {
        "lat": 56.124348,
        "lon": 101.4460511,
        "id": 20239,
        "name": "БАГУЛЬНАЯ"
    },
    {
        "lat": 56.1465388,
        "lon": 101.6128111,
        "id": 20241,
        "name": "НОВОБРАТСК"
    },
    {
        "lat": 56.1814945,
        "lon": 101.5730196,
        "id": 20244,
        "name": "ТЕПЛОВАЯ"
    },
    {
        "lat": 56.2250038,
        "lon": 101.5890887,
        "id": 20246,
        "name": "ГАЛАЧИНСКИЙ"
    },
    {
        "lat": 56.3020917,
        "lon": 101.750087,
        "id": 20249,
        "name": "ЭНЕРГЕТИК"
    },
    {
        "lat": 56.2930435,
        "lon": 102.0526287,
        "id": 20252,
        "name": "ПОДВЫЕЗДНЫЙ"
    },
    {
        "lat": 56.441372,
        "lon": 102.250902,
        "id": 20254,
        "name": "ПАШЕННЫЙ"
    },
    {
        "lat": 56.561948,
        "lon": 102.4399647,
        "id": 20256,
        "name": "КЕЖЕМСКАЯ"
    },
    {
        "lat": 56.4052512,
        "lon": 103.1113159,
        "id": 20260,
        "name": "ВИДИМ"
    },
    {
        "lat": 56.4283695,
        "lon": 103.3471348,
        "id": 20261,
        "name": "СОХАТЫЙ"
    },
    {
        "lat": 56.3939329,
        "lon": 103.9136793,
        "id": 20263,
        "name": "СЕЛЕЗНЕВО"
    },
    {
        "lat": 56.4597781,
        "lon": 103.4581709,
        "id": 20264,
        "name": "ОП 489 КМ"
    },
    {
        "lat": 56.4146838,
        "lon": 103.9250884,
        "id": 20265,
        "name": "ОП 526 КМ"
    },
    {
        "lat": 56.4596615,
        "lon": 103.9467183,
        "id": 20266,
        "name": "ОП 532 КМ"
    },
    {
        "lat": 56.8619018,
        "lon": 104.2487004,
        "id": 20274,
        "name": "НАЧАЛЬНЫЙ"
    },
    {
        "lat": 57.0019743,
        "lon": 104.0560508,
        "id": 20275,
        "name": "БАЛАРИХТА"
    },
    {
        "lat": 56.7263924,
        "lon": 104.415192,
        "id": 20276,
        "name": "КАРСТОВАЯ"
    },
    {
        "lat": 57.1272825,
        "lon": 103.8925061,
        "id": 20280,
        "name": "ИГИРМА"
    },
    {
        "lat": 57.2750149,
        "lon": 103.762046,
        "id": 20281,
        "name": "РУДНОГОРСК"
    },
    {
        "lat": 57.5796845,
        "lon": 103.4347317,
        "id": 20283,
        "name": "ТУШАМА"
    },
    {
        "lat": 57.6454353,
        "lon": 103.2887271,
        "id": 20284,
        "name": "ТУБИНСКАЯ"
    },
    {
        "lat": 57.7986785,
        "lon": 103.1654124,
        "id": 20285,
        "name": "ДИАБАЗОВЫЙ"
    },
    {
        "lat": 56.6885538,
        "lon": 104.6672976,
        "id": 20288,
        "name": "СЕМИГОРСК"
    },
    {
        "lat": 56.7620996,
        "lon": 104.7188134,
        "id": 20289,
        "name": "МЕРЗЛОТНАЯ"
    },
    {
        "lat": 56.8325327,
        "lon": 104.9344072,
        "id": 20294,
        "name": "ОП 652 КМ"
    },
    {
        "lat": 56.8562453,
        "lon": 105.0646409,
        "id": 20295,
        "name": "РУЧЕЙ"
    },
    {
        "lat": 56.7676148,
        "lon": 105.6466911,
        "id": 20299,
        "name": "УСТЬ-КУТ"
    },
    {
        "lat": 56.7921825,
        "lon": 105.5817705,
        "id": 20300,
        "name": "ПАНИХА"
    },
    {
        "lat": 56.843168,
        "lon": 105.2494668,
        "id": 20301,
        "name": "ОП 674 КМ"
    },
    {
        "lat": 56.7820417,
        "lon": 105.7454407,
        "id": 20305,
        "name": "ЛЕНА"
    },
    {
        "lat": 56.7494257,
        "lon": 105.3692323,
        "id": 20306,
        "name": "ОП 687 КМ"
    },
    {
        "lat": 56.7462834,
        "lon": 105.4341669,
        "id": 20308,
        "name": "ОП 692 КМ"
    },
    {
        "lat": 56.7299689,
        "lon": 105.4969516,
        "id": 20310,
        "name": "ОП 697 КМ"
    },
    {
        "lat": 56.7713185,
        "lon": 105.5543748,
        "id": 20312,
        "name": "ОП 703 КМ"
    },
    {
        "lat": 52.3369911,
        "lon": 104.2139778,
        "id": 20318,
        "name": "ИРКУТСК-СОРТ"
    },
    {
        "lat": 52.2625633,
        "lon": 104.2436952,
        "id": 20321,
        "name": "МЕЛЬНИКОВО"
    },
    {
        "lat": 53.6752731,
        "lon": 102.310063,
        "id": 20322,
        "name": "ТЫРЕТЬ"
    },
    {
        "lat": 53.6148619,
        "lon": 102.408568,
        "id": 20324,
        "name": "ХАЛЯРТА"
    },
    {
        "lat": 53.5675748,
        "lon": 102.5182895,
        "id": 20325,
        "name": "ЗАЛАРИ"
    },
    {
        "lat": 53.4733394,
        "lon": 102.6380215,
        "id": 20326,
        "name": "ХОТХОР"
    },
    {
        "lat": 53.387417,
        "lon": 102.7235705,
        "id": 20328,
        "name": "ХАРТОВСКАЯ"
    },
    {
        "lat": 53.3589327,
        "lon": 102.7567942,
        "id": 20330,
        "name": "КУТУЛИК"
    },
    {
        "lat": 53.3463368,
        "lon": 102.779837,
        "id": 20331,
        "name": "РАЙПОТРЕБСОЮЗ"
    },
    {
        "lat": 53.2718977,
        "lon": 102.8351476,
        "id": 20332,
        "name": "ЗАБИТУЙ"
    },
    {
        "lat": 53.2208333,
        "lon": 102.9297421,
        "id": 20334,
        "name": "ТРАКТОВЫЙ"
    },
    {
        "lat": 53.1488524,
        "lon": 103.0845294,
        "id": 20338,
        "name": "ЧЕРЕМХОВО"
    },
    {
        "lat": 53.1079226,
        "lon": 103.335664,
        "id": 20346,
        "name": "МАКАРЬЕВО"
    },
    {
        "lat": 53.1016143,
        "lon": 103.1405678,
        "id": 20347,
        "name": "ГРИШЕВО"
    },
    {
        "lat": 53.0292832,
        "lon": 103.1903463,
        "id": 20350,
        "name": "ВОСТОЧНАЯ"
    },
    {
        "lat": 52.9749886,
        "lon": 103.2465256,
        "id": 20351,
        "name": "ЧЕРЕПАНОВКА"
    },
    {
        "lat": 52.9975211,
        "lon": 103.2171401,
        "id": 20352,
        "name": "ВИТУХ"
    },
    {
        "lat": 52.9560176,
        "lon": 103.283227,
        "id": 20353,
        "name": "ПОЛОВИНА"
    },
    {
        "lat": 52.9237747,
        "lon": 103.3649816,
        "id": 20354,
        "name": "ЗАИМКА"
    },
    {
        "lat": 52.8950676,
        "lon": 103.4214961,
        "id": 20355,
        "name": "ТКАЧЕНКО"
    },
    {
        "lat": 52.8684275,
        "lon": 103.4861544,
        "id": 20356,
        "name": "БЕЛАЯ"
    },
    {
        "lat": 52.8536984,
        "lon": 103.4917911,
        "id": 20357,
        "name": "ОП 5100 КМ"
    },
    {
        "lat": 52.7894355,
        "lon": 103.5756587,
        "id": 20359,
        "name": "МАЛЬТИНКА"
    },
    {
        "lat": 52.7745928,
        "lon": 103.5945744,
        "id": 20360,
        "name": "ЛУЖКИ"
    },
    {
        "lat": 52.7535272,
        "lon": 103.6219241,
        "id": 20361,
        "name": "ЗЕЛЕНЫЙ ГОР"
    },
    {
        "lat": 52.6913241,
        "lon": 103.6913071,
        "id": 20363,
        "name": "ТЕЛЬМИНКА"
    },
    {
        "lat": 52.667428,
        "lon": 103.7304319,
        "id": 20364,
        "name": "ТЕЛЬМА"
    },
    {
        "lat": 52.6120387,
        "lon": 103.845651,
        "id": 20365,
        "name": "БИЛИКТУЙ"
    },
    {
        "lat": 52.5754097,
        "lon": 103.899212,
        "id": 20368,
        "name": "МАЙСК"
    },
    {
        "lat": 52.5507279,
        "lon": 103.9140315,
        "id": 20369,
        "name": "АНГАРСК"
    },
    {
        "lat": 52.5280203,
        "lon": 103.9280382,
        "id": 20370,
        "name": "ЮЖНАЯ"
    },
    {
        "lat": 52.4816623,
        "lon": 103.9871867,
        "id": 20373,
        "name": "СОВХОЗНАЯ"
    },
    {
        "lat": 52.4581105,
        "lon": 104.0301129,
        "id": 20374,
        "name": "КАРЬЕР"
    },
    {
        "lat": 52.4200901,
        "lon": 104.0562074,
        "id": 20377,
        "name": "МЕГЕТ"
    },
    {
        "lat": 52.403802,
        "lon": 104.0918721,
        "id": 20378,
        "name": "ВЕРЕСОВКА"
    },
    {
        "lat": 52.3691005,
        "lon": 104.1696406,
        "id": 20380,
        "name": "ГОРКА"
    },
    {
        "lat": 52.344017,
        "lon": 104.2046334,
        "id": 20382,
        "name": "ЗАВОДСКАЯ"
    },
    {
        "lat": 52.3086896,
        "lon": 104.2358739,
        "id": 20383,
        "name": "ВОЕННЫЙ ГОР"
    },
    {
        "lat": 52.2687596,
        "lon": 104.2216043,
        "id": 20385,
        "name": "КАЯ"
    },
    {
        "lat": 52.2513012,
        "lon": 104.1532131,
        "id": 20386,
        "name": "СМОЛЕНЩИНА"
    },
    {
        "lat": 52.2473995,
        "lon": 104.1300898,
        "id": 20387,
        "name": "ТУРБАЗА"
    },
    {
        "lat": 52.2280058,
        "lon": 104.1163914,
        "id": 20388,
        "name": "ШЕЛЕХОВ"
    },
    {
        "lat": 52.263647,
        "lon": 104.183446,
        "id": 20389,
        "name": "ЧЕРЕМУШКИ"
    },
    {
        "lat": 52.1627868,
        "lon": 104.1071638,
        "id": 20392,
        "name": "ОЛХА"
    },
    {
        "lat": 52.1537781,
        "lon": 104.0752119,
        "id": 20393,
        "name": "ЛЕТНЯЯ"
    },
    {
        "lat": 52.1221848,
        "lon": 104.0837688,
        "id": 20394,
        "name": "ДАЧНАЯ"
    },
    {
        "lat": 52.1379823,
        "lon": 104.0698784,
        "id": 20395,
        "name": "ГОЛУБЫЕ ЕЛИ"
    },
    {
        "lat": 52.1119118,
        "lon": 104.1039939,
        "id": 20396,
        "name": "САДОВАЯ"
    },
    {
        "lat": 52.0777947,
        "lon": 104.0903528,
        "id": 20397,
        "name": "БОЛЬШОЙ ЛУГ"
    },
    {
        "lat": 52.0525232,
        "lon": 104.0765883,
        "id": 20398,
        "name": "ХАНЧИН"
    },
    {
        "lat": 51.7443075,
        "lon": 113.8487048,
        "id": 20400,
        "name": "ОРЛЕНОК"
    },
    {
        "lat": 52.0125697,
        "lon": 104.0437393,
        "id": 20401,
        "name": "ЯГОДНЫЙ"
    },
    {
        "lat": 52.0123062,
        "lon": 104.0178836,
        "id": 20402,
        "name": "ОГОНЬКИ"
    },
    {
        "lat": 51.9917647,
        "lon": 103.9829805,
        "id": 20404,
        "name": "ТРУДНЫЙ"
    },
    {
        "lat": 51.9968614,
        "lon": 103.960686,
        "id": 20405,
        "name": "МЕДВЕЖИЙ"
    },
    {
        "lat": 51.9463754,
        "lon": 103.8839204,
        "id": 20407,
        "name": "САНАТОРНЫЙ"
    },
    {
        "lat": 51.8788863,
        "lon": 103.855565,
        "id": 20408,
        "name": "ГЛУБОКАЯ"
    },
    {
        "lat": 51.8270678,
        "lon": 103.8190358,
        "id": 20409,
        "name": "ПЕРЕЕЗД"
    },
    {
        "lat": 51.9871164,
        "lon": 103.9491778,
        "id": 20411,
        "name": "СОСНОВЫЙ"
    },
    {
        "lat": 51.9033806,
        "lon": 103.8842014,
        "id": 20412,
        "name": "ИСТОЧНИК"
    },
    {
        "lat": 51.7527651,
        "lon": 103.7446644,
        "id": 20414,
        "name": "ПОВОРОТ"
    },
    {
        "lat": 51.9243325,
        "lon": 103.8892429,
        "id": 20415,
        "name": "РОДНИКОВЫЙ"
    },
    {
        "lat": 51.7483844,
        "lon": 103.7562831,
        "id": 20416,
        "name": "АНГАСОЛКА"
    },
    {
        "lat": 51.6981557,
        "lon": 103.6897789,
        "id": 20419,
        "name": "СЛЮДЯНКА II"
    },
    {
        "lat": 51.7375568,
        "lon": 103.7795833,
        "id": 20420,
        "name": "ТЕМНАЯ ПАДЬ"
    },
    {
        "lat": 51.7352861,
        "lon": 103.723997,
        "id": 20421,
        "name": "ЗЕМЛЯНИЧНЫЙ"
    },
    {
        "lat": 51.7378989,
        "lon": 103.6992286,
        "id": 20422,
        "name": "ПАРТИЗАНСКАЯ"
    },
    {
        "lat": 51.7155536,
        "lon": 103.6713875,
        "id": 20423,
        "name": "ВЕРБНЫЙ"
    },
    {
        "lat": 51.6584986,
        "lon": 103.7238261,
        "id": 20424,
        "name": "СЛЮДЯНКА I"
    },
    {
        "lat": 51.6442287,
        "lon": 103.7604727,
        "id": 20425,
        "name": "РЫБЗАВОД"
    },
    {
        "lat": 51.6241423,
        "lon": 103.8132189,
        "id": 20426,
        "name": "БУРАВЩИНА"
    },
    {
        "lat": 51.6054204,
        "lon": 103.9038901,
        "id": 20427,
        "name": "МАНГУТАЙ"
    },
    {
        "lat": 51.5603788,
        "lon": 104.0017011,
        "id": 20428,
        "name": "ОРЕХОВАЯ ПАДЬ"
    },
    {
        "lat": 52.1119118,
        "lon": 104.1039939,
        "id": 20429,
        "name": "САДОВАЯ"
    },
    {
        "lat": 51.6115603,
        "lon": 103.8505987,
        "id": 20430,
        "name": "МУРАВЕЙ"
    },
    {
        "lat": 51.729214,
        "lon": 103.7222893,
        "id": 20431,
        "name": "КУЛТУК"
    },
    {
        "lat": 51.7499443,
        "lon": 103.9713858,
        "id": 20433,
        "name": "ШАРЫЖАЛГАЙ"
    },
    {
        "lat": 51.7864728,
        "lon": 104.2266138,
        "id": 20434,
        "name": "МАРИТУЙ"
    },
    {
        "lat": 51.7959289,
        "lon": 104.5151831,
        "id": 20435,
        "name": "УЛАНОВО"
    },
    {
        "lat": 51.8570844,
        "lon": 104.7165786,
        "id": 20440,
        "name": "ОП 78 КМ"
    },
    {
        "lat": 51.870378,
        "lon": 104.8090101,
        "id": 20442,
        "name": "БАЙКАЛ"
    },
    {
        "lat": 51.5340456,
        "lon": 104.0876428,
        "id": 20444,
        "name": "ОП 5342 КМ"
    },
    {
        "lat": 51.5055518,
        "lon": 104.1877094,
        "id": 20447,
        "name": "ПРОМПЛОЩАДКА"
    },
    {
        "lat": 51.5415713,
        "lon": 104.059363,
        "id": 20448,
        "name": "УТУЛИК"
    },
    {
        "lat": 51.5004332,
        "lon": 104.2263739,
        "id": 20449,
        "name": "БАЙКАЛЬСК"
    },
    {
        "lat": 51.4780916,
        "lon": 104.407627,
        "id": 20451,
        "name": "МУРИНО"
    },
    {
        "lat": 51.4778251,
        "lon": 104.4527784,
        "id": 20453,
        "name": "ОП 5369 КМ"
    },
    {
        "lat": 51.4563514,
        "lon": 104.5086358,
        "id": 20455,
        "name": "ПАНЬКОВКА II"
    },
    {
        "lat": 51.4452045,
        "lon": 104.6934383,
        "id": 20458,
        "name": "ТОЛБАЗИХА"
    },
    {
        "lat": 51.4544095,
        "lon": 104.7705227,
        "id": 20459,
        "name": "МАМАЙ"
    },
    {
        "lat": 51.555241,
        "lon": 105.1136568,
        "id": 20471,
        "name": "ТАНХОЙ"
    },
    {
        "lat": 51.5794214,
        "lon": 105.2528937,
        "id": 20478,
        "name": "ПЕРЕЕМНАЯ"
    },
    {
        "lat": 51.6053433,
        "lon": 105.4195266,
        "id": 20480,
        "name": "ПРИБОЙ"
    },
    {
        "lat": 51.5991919,
        "lon": 105.379868,
        "id": 20481,
        "name": "ОСИНОВКА"
    },
    {
        "lat": 51.6857371,
        "lon": 105.7410005,
        "id": 20483,
        "name": "КЛЮЕВКА"
    },
    {
        "lat": 51.6857371,
        "lon": 105.7410005,
        "id": 20484,
        "name": "ОП КЛЮЕВКА"
    },
    {
        "lat": 51.7279651,
        "lon": 105.9325325,
        "id": 20487,
        "name": "ТЕЛЬНАЯ"
    },
    {
        "lat": 51.755981,
        "lon": 105.9667988,
        "id": 20488,
        "name": "ГРЕМЯЧИЙ"
    },
    {
        "lat": 51.7769258,
        "lon": 105.9829862,
        "id": 20489,
        "name": "МАНТУРИХА"
    },
    {
        "lat": 51.80925,
        "lon": 106.0226602,
        "id": 20490,
        "name": "СУХОЙ РУЧЕЙ"
    },
    {
        "lat": 51.8492863,
        "lon": 106.0698945,
        "id": 20491,
        "name": "БОЯРСКИЙ"
    },
    {
        "lat": 51.7527651,
        "lon": 103.7446644,
        "id": 20492,
        "name": "ПОВОРОТ"
    },
    {
        "lat": 51.8928271,
        "lon": 106.1353073,
        "id": 20493,
        "name": "КУЛТУШНАЯ"
    },
    {
        "lat": 51.9686508,
        "lon": 106.3511987,
        "id": 20496,
        "name": "ПОСОЛЬСКАЯ"
    },
    {
        "lat": 51.9700945,
        "lon": 106.3090653,
        "id": 20497,
        "name": "БОЛЬШАЯ РЕЧКА"
    },
    {
        "lat": 51.9852179,
        "lon": 106.5096492,
        "id": 20501,
        "name": "ЕЛОВКА"
    },
    {
        "lat": 52.0157425,
        "lon": 106.6982512,
        "id": 20503,
        "name": "НЮКИ"
    },
    {
        "lat": 52.0185955,
        "lon": 106.7528307,
        "id": 20504,
        "name": "БЕРЕГОВОЙ"
    },
    {
        "lat": 52.0202035,
        "lon": 106.8450121,
        "id": 20506,
        "name": "ОП 5560 КМ"
    },
    {
        "lat": 52.0328682,
        "lon": 106.8712229,
        "id": 20507,
        "name": "СЕЛЕНГА"
    },
    {
        "lat": 52.0451343,
        "lon": 106.8965019,
        "id": 20508,
        "name": "ПЕРВ ПЛОЩАДКА"
    },
    {
        "lat": 52.0688802,
        "lon": 106.9618047,
        "id": 20509,
        "name": "ТАРАКАНОВКА"
    },
    {
        "lat": 52.0842787,
        "lon": 107.0219821,
        "id": 20510,
        "name": "МОСТОВКА"
    },
    {
        "lat": 52.1142828,
        "lon": 107.1394338,
        "id": 20512,
        "name": "ТАЛОВКА"
    },
    {
        "lat": 52.1158415,
        "lon": 107.1690875,
        "id": 20513,
        "name": "ТРОИЦКОЕ"
    },
    {
        "lat": 52.1159777,
        "lon": 107.2493382,
        "id": 20514,
        "name": "ЛЕСОВОЗНЫЙ"
    },
    {
        "lat": 52.1214614,
        "lon": 107.3045023,
        "id": 20515,
        "name": "ИЛЬИНКА"
    },
    {
        "lat": 52.1393005,
        "lon": 107.4347426,
        "id": 20516,
        "name": "ТАТАУРОВО"
    },
    {
        "lat": 52.0894913,
        "lon": 107.4835895,
        "id": 20517,
        "name": "МАНДРИК"
    },
    {
        "lat": 52.0487606,
        "lon": 107.4919484,
        "id": 20520,
        "name": "КОЛОС"
    },
    {
        "lat": 52.0290665,
        "lon": 107.4972928,
        "id": 20521,
        "name": "ПЕТУХОВКА"
    },
    {
        "lat": 51.9176615,
        "lon": 107.4999477,
        "id": 20523,
        "name": "СОТНИКОВО"
    },
    {
        "lat": 56.1540841,
        "lon": 97.1584696,
        "id": 20524,
        "name": "СОСНОВЫЙ БОР"
    },
    {
        "lat": 51.9610642,
        "lon": 107.5001081,
        "id": 20525,
        "name": "УЧИТЕЛЬ"
    },
    {
        "lat": 51.9402684,
        "lon": 107.5023143,
        "id": 20526,
        "name": "СОЛНЕЧНАЯ"
    },
    {
        "lat": 51.9309625,
        "lon": 107.5053433,
        "id": 20527,
        "name": "ЗЕНИТ"
    },
    {
        "lat": 51.8881264,
        "lon": 107.5181007,
        "id": 20528,
        "name": "ДИВИЗИОННАЯ"
    },
    {
        "lat": 51.8623739,
        "lon": 107.5411939,
        "id": 20529,
        "name": "СТЕКЛОЗАВОД"
    },
    {
        "lat": 51.614149,
        "lon": 107.3893694,
        "id": 20532,
        "name": "ШАЛУТЫ"
    },
    {
        "lat": 51.8023616,
        "lon": 107.6189719,
        "id": 20535,
        "name": "КОМУШКА"
    },
    {
        "lat": 51.7760447,
        "lon": 107.5530104,
        "id": 20539,
        "name": "МЕДВЕДЧИКОВО"
    },
    {
        "lat": 51.6886053,
        "lon": 107.4472536,
        "id": 20542,
        "name": "САЯНТУЙ"
    },
    {
        "lat": 51.603168,
        "lon": 107.372862,
        "id": 20546,
        "name": "ОП 5689 КМ"
    },
    {
        "lat": 51.5202471,
        "lon": 107.2606013,
        "id": 20551,
        "name": "ДЕР ГАНЗУРИНО"
    },
    {
        "lat": 51.5130713,
        "lon": 107.1137498,
        "id": 20552,
        "name": "ОП 5717 КМ"
    },
    {
        "lat": 51.530668,
        "lon": 107.027203,
        "id": 20553,
        "name": "ОРОНГОЙ"
    },
    {
        "lat": 51.500854,
        "lon": 106.8518309,
        "id": 20557,
        "name": "УБУКУН"
    },
    {
        "lat": 51.4569931,
        "lon": 106.6987265,
        "id": 20559,
        "name": "ТЕЛЬМАН"
    },
    {
        "lat": 51.4386609,
        "lon": 106.682919,
        "id": 20560,
        "name": "ОП 5751 КМ"
    },
    {
        "lat": 51.3717152,
        "lon": 106.5830832,
        "id": 20561,
        "name": "СУЛЬФАТ"
    },
    {
        "lat": 51.2434738,
        "lon": 106.3809278,
        "id": 20567,
        "name": "БАРАТЫ"
    },
    {
        "lat": 51.1978929,
        "lon": 106.3531199,
        "id": 20568,
        "name": "МУРТОЙ"
    },
    {
        "lat": 51.2004729,
        "lon": 108.8607091,
        "id": 20569,
        "name": "ОП 5796 КМ"
    },
    {
        "lat": 51.1148596,
        "lon": 106.270043,
        "id": 20570,
        "name": "ГУСИНОЕ ОЗЕРО"
    },
    {
        "lat": 50.9206467,
        "lon": 106.2451419,
        "id": 20573,
        "name": "ОП 5822 КМ"
    },
    {
        "lat": 50.7749285,
        "lon": 106.2679487,
        "id": 20575,
        "name": "БУТИХА"
    },
    {
        "lat": 50.6871504,
        "lon": 106.1860135,
        "id": 20576,
        "name": "ДЖИДА"
    },
    {
        "lat": 50.572958,
        "lon": 106.195586,
        "id": 20577,
        "name": "ХУЖИР"
    },
    {
        "lat": 50.4805749,
        "lon": 106.156878,
        "id": 20579,
        "name": "ХАРАНХОЙ"
    },
    {
        "lat": 51.8474298,
        "lon": 107.7814021,
        "id": 20585,
        "name": "ТАЛЬЦЫ"
    },
    {
        "lat": 51.8817332,
        "lon": 107.9111119,
        "id": 20586,
        "name": "КОЛХОЗНЫЙ"
    },
    {
        "lat": 51.8956918,
        "lon": 107.9829709,
        "id": 20587,
        "name": "ОП 5672 КМ"
    },
    {
        "lat": 51.9079641,
        "lon": 108.0155356,
        "id": 20588,
        "name": "БАЗА ПМС"
    },
    {
        "lat": 52.1221848,
        "lon": 104.0837688,
        "id": 20589,
        "name": "ДАЧНАЯ"
    },
    {
        "lat": 51.9149666,
        "lon": 108.0371113,
        "id": 20591,
        "name": "ОНОХОЙ"
    },
    {
        "lat": 51.7606707,
        "lon": 108.3892408,
        "id": 20600,
        "name": "ЧЕЛУТАЙ"
    },
    {
        "lat": 51.7196339,
        "lon": 108.5094241,
        "id": 20601,
        "name": "ИЛЬКА"
    },
    {
        "lat": 51.5648263,
        "lon": 108.7889618,
        "id": 20604,
        "name": "ГОРХОН"
    },
    {
        "lat": 51.4555351,
        "lon": 108.8813936,
        "id": 20605,
        "name": "КИЖА"
    },
    {
        "lat": 56.346674,
        "lon": 114.4231216,
        "id": 40067,
        "name": "ОП 1441 КМ"
    },
    {
        "lat": 56.8306983,
        "lon": 104.895206,
        "id": 20293,
        "name": "ОП 648 КМ"
    },
    {
        "lat": 56.1031956,
        "lon": 99.3070629,
        "id": 20213,
        "name": "ОП 119 КМ"
    },
    {
        "lat": 54.4824786,
        "lon": 100.8049362,
        "id": 20164,
        "name": "ОП 4820 КМ"
    },
    {
        "lat": 54.5672694,
        "lon": 100.6057114,
        "id": 20160,
        "name": "ОП 4802 КМ"
    },
    {
        "lat": 51.8406683,
        "lon": 107.5825388,
        "id": 20530,
        "name": "УЛАН-УДЭ"
    },
    {
        "lat": 56.5585144,
        "lon": 106.8066887,
        "id": 19890,
        "name": "НИЯ"
    },
    {
        "lat": 56.1795725,
        "lon": 107.455558,
        "id": 19892,
        "name": "КИРЕНГА"
    },
    {
        "lat": 55.7632958,
        "lon": 108.4507861,
        "id": 19896,
        "name": "КУНЕРМА"
    },
    {
        "lat": 56.011877,
        "lon": 110.9068743,
        "id": 19922,
        "name": "АНГОЯ"
    },
    {
        "lat": 57.010879,
        "lon": 119.6316477,
        "id": 19948,
        "name": "ОЛОНГДО"
    },
    {
        "lat": 56.3788796,
        "lon": 114.5008159,
        "id": 19966,
        "name": "УЛАН-МАКИТ"
    },
    {
        "lat": 55.9711939,
        "lon": 97.8234353,
        "id": 20096,
        "name": "БИРЮСИНСК"
    },
    {
        "lat": 55.5523243,
        "lon": 98.666029,
        "id": 20112,
        "name": "АЛЗАМАЙ"
    },
    {
        "lat": 55.0797597,
        "lon": 98.8631763,
        "id": 20125,
        "name": "УК"
    },
    {
        "lat": 54.8430833,
        "lon": 99.1217132,
        "id": 20134,
        "name": "УДА II"
    },
    {
        "lat": 54.6255226,
        "lon": 99.8458894,
        "id": 20149,
        "name": "ШЕБЕРТА"
    },
    {
        "lat": 54.6431077,
        "lon": 100.4575377,
        "id": 20156,
        "name": "КОТИК"
    },
    {
        "lat": 54.5102358,
        "lon": 100.758808,
        "id": 20163,
        "name": "АЗЕЙ"
    },
    {
        "lat": 54.4710053,
        "lon": 101.1640646,
        "id": 20169,
        "name": "ТУЛЮШКА"
    },
    {
        "lat": 54.1366433,
        "lon": 101.8432847,
        "id": 20181,
        "name": "КИМИЛЬТЕЙ"
    },
    {
        "lat": 56.1636026,
        "lon": 99.0303385,
        "id": 20209,
        "name": "ПАРЧУМ"
    },
    {
        "lat": 56.0670715,
        "lon": 99.4441061,
        "id": 20217,
        "name": "СОСН РОДНИКИ"
    },
    {
        "lat": 56.1224259,
        "lon": 100.2391055,
        "id": 20227,
        "name": "КЕШЕВО"
    },
    {
        "lat": 56.1902907,
        "lon": 100.8836296,
        "id": 20232,
        "name": "ТУРМА"
    },
    {
        "lat": 56.1220236,
        "lon": 101.5449795,
        "id": 20240,
        "name": "БРАТСК"
    },
    {
        "lat": 56.1525143,
        "lon": 101.4757542,
        "id": 20245,
        "name": "АНЗЕБИ"
    },
    {
        "lat": 56.2741206,
        "lon": 101.8952499,
        "id": 20251,
        "name": "ГИДРОСТРОИТЕЛЬ"
    },
    {
        "lat": 56.5748448,
        "lon": 102.6305996,
        "id": 20257,
        "name": "МАМЫРЬ"
    },
    {
        "lat": 56.4140467,
        "lon": 103.6419765,
        "id": 20262,
        "name": "ЧЕРНАЯ"
    },
    {
        "lat": 56.7113567,
        "lon": 104.2446751,
        "id": 20273,
        "name": "ХРЕБТОВАЯ"
    },
    {
        "lat": 56.5279849,
        "lon": 102.864698,
        "id": 20279,
        "name": "РЕЧУШКА"
    },
    {
        "lat": 57.9099753,
        "lon": 102.7763285,
        "id": 20287,
        "name": "УСТЬ-ИЛИМСК"
    },
    {
        "lat": 56.8564918,
        "lon": 105.2163564,
        "id": 20296,
        "name": "ЯНТАЛЬ"
    },
    {
        "lat": 56.805567,
        "lon": 105.8997325,
        "id": 20314,
        "name": "ЯКУРИМ"
    },
    {
        "lat": 52.2826286,
        "lon": 104.2603298,
        "id": 20319,
        "name": "ИРКУТСК-ПАС"
    },
    {
        "lat": 53.4278445,
        "lon": 102.6738302,
        "id": 20329,
        "name": "ГОЛОВИНСКАЯ"
    },
    {
        "lat": 53.1826647,
        "lon": 103.02982,
        "id": 20337,
        "name": "ЖАРГОН"
    },
    {
        "lat": 53.0565173,
        "lon": 103.1654564,
        "id": 20348,
        "name": "КАСЬЯНОВКА"
    },
    {
        "lat": 52.8259721,
        "lon": 103.5227168,
        "id": 20358,
        "name": "МАЛЬТА"
    },
    {
        "lat": 52.5992173,
        "lon": 103.8759492,
        "id": 20367,
        "name": "КИТОЙ"
    },
    {
        "lat": 52.4996371,
        "lon": 103.9479725,
        "id": 20372,
        "name": "СУХОВСКАЯ"
    },
    {
        "lat": 52.3871762,
        "lon": 104.1366411,
        "id": 20379,
        "name": "БАТАРЕЙНАЯ"
    },
    {
        "lat": 52.2009126,
        "lon": 104.106893,
        "id": 20390,
        "name": "ГОНЧАРОВО"
    },
    {
        "lat": 51.9675623,
        "lon": 103.906145,
        "id": 20406,
        "name": "ПОДКАМЕННАЯ"
    },
    {
        "lat": 51.8044868,
        "lon": 103.808371,
        "id": 20410,
        "name": "АНДРИАНОВСКАЯ"
    },
    {
        "lat": 51.4467353,
        "lon": 104.6454759,
        "id": 20456,
        "name": "ВЫДРИНО"
    },
    {
        "lat": 51.6527836,
        "lon": 105.58802,
        "id": 20477,
        "name": "МИШИХА"
    },
    {
        "lat": 51.7186113,
        "lon": 105.8626219,
        "id": 20486,
        "name": "МЫСОВАЯ"
    },
    {
        "lat": 52.0042262,
        "lon": 106.6163643,
        "id": 20502,
        "name": "ТИМЛЮЙ"
    },
    {
        "lat": 52.0110645,
        "lon": 107.4974627,
        "id": 20522,
        "name": "МОСТОВОЙ"
    },
    {
        "lat": 51.8238529,
        "lon": 107.6800369,
        "id": 20533,
        "name": "ЗАУДИНСКИЙ"
    },
    {
        "lat": 51.5149464,
        "lon": 107.1887892,
        "id": 20550,
        "name": "ГАНЗУРИНО"
    },
    {
        "lat": 51.3246832,
        "lon": 106.4885618,
        "id": 20564,
        "name": "ЗАГУСТАЙ"
    },
    {
        "lat": 50.873214,
        "lon": 106.2426305,
        "id": 20574,
        "name": "СЕЛЕНДУМА"
    },
    {
        "lat": 50.3890674,
        "lon": 106.0998926,
        "id": 20580,
        "name": "НАУШКИ"
    },
    {
        "lat": 51.8403929,
        "lon": 108.2766585,
        "id": 20592,
        "name": "ЗАИГРАЕВО"
    },
    {
        "lat": 51.6764252,
        "lon": 108.7006376,
        "id": 20603,
        "name": "НОВОИЛЬИНСКИЙ"
    },
    {
        "lat": 56.4728287,
        "lon": 103.9507376,
        "id": 20267,
        "name": "ОП 533 КМ"
    },
    {
        "lat": 54.4620291,
        "lon": 100.9733399,
        "id": 20167,
        "name": "ОП 4832 КМ"
    },
    {
        "lat": 55.8595391,
        "lon": 98.1246725,
        "id": 20094,
        "name": "ОП 4528 КМ"
    },
    {
        "lat": 55.898936,
        "lon": 98.1020154,
        "id": 20090,
        "name": "ОП 4522 КМ"
    },
    {
        "lat": 53.995748,
        "lon": 102.0013029,
        "id": 20186,
        "name": "ОП 4926 КМ"
    },
    {
        "lat": 54.0339305,
        "lon": 101.9654207,
        "id": 20184,
        "name": "ОП 4921 КМ"
    },
    {
        "lat": 54.1205837,
        "lon": 101.8615433,
        "id": 20180,
        "name": "ОП 4909 КМ"
    },
    {
        "lat": 51.713996,
        "lon": 103.6909575,
        "id": 20469,
        "name": "ОП 159 КМ"
    },
    {
        "lat": 53.435362,
        "lon": 102.6635281,
        "id": 20327,
        "name": "ОП 5010 КМ"
    },
    {
        "lat": 55.3415951,
        "lon": 98.6472291,
        "id": 20117,
        "name": "ОП 4611 КМ"
    },
    {
        "lat": 55.3093308,
        "lon": 98.6785597,
        "id": 20118,
        "name": "ОП 4615 КМ"
    },
    {
        "lat": 55.2753086,
        "lon": 98.7389098,
        "id": 20119,
        "name": "ОП 4621 КМ"
    },
    {
        "lat": 54.7669344,
        "lon": 99.4251233,
        "id": 20140,
        "name": "ОП 4709 КМ"
    },
    {
        "lat": 52.0639826,
        "lon": 107.4887791,
        "id": 20518,
        "name": "ОП 5613 КМ"
    },
    {
        "lat": 51.0278797,
        "lon": 106.2614875,
        "id": 20571,
        "name": "ТЕМНИК"
    },
    {
        "lat": 56.3021774,
        "lon": 101.6916353,
        "id": 20248,
        "name": "ОП 321 КМ"
    },
    {
        "lat": 56.1589746,
        "lon": 99.185025,
        "id": 20212,
        "name": "ОП 109 КМ"
    },
    {
        "lat": 56.3128061,
        "lon": 97.3759017,
        "id": 20194,
        "name": "ОП 24 КМ"
    },
    {
        "lat": 56.1697502,
        "lon": 98.4034865,
        "id": 20198,
        "name": "ОП 45 КМ"
    },
    {
        "lat": 54.4622142,
        "lon": 100.8530579,
        "id": 20165,
        "name": "ОП 4824 КМ"
    },
    {
        "lat": 56.4981496,
        "lon": 103.9640827,
        "id": 20270,
        "name": "ОП 536 КМ"
    },
    {
        "lat": 54.6257635,
        "lon": 99.8892063,
        "id": 20150,
        "name": "ОП 4746 КМ"
    },
    {
        "lat": 51.5102312,
        "lon": 104.1568214,
        "id": 20446,
        "name": "ОП 5347 КМ"
    },
    {
        "lat": 56.1333394,
        "lon": 99.7973555,
        "id": 20223,
        "name": "ОП 155 КМ"
    },
    {
        "lat": 51.4786919,
        "lon": 104.35833,
        "id": 20452,
        "name": "ОП 5362 КМ"
    },
    {
        "lat": 54.9878272,
        "lon": 98.8773979,
        "id": 20128,
        "name": "ОП 4663 КМ"
    },
    {
        "lat": 54.3889677,
        "lon": 101.3803707,
        "id": 20173,
        "name": "ОП 4863 КМ"
    },
    {
        "lat": 51.8732337,
        "lon": 107.8765851,
        "id": 20590,
        "name": "ОП 5664 КМ"
    },
    {
        "lat": 53.6588726,
        "lon": 102.3510654,
        "id": 20323,
        "name": "ОП 4971 КМ"
    },
    {
        "lat": 54.9416775,
        "lon": 98.9602939,
        "id": 20130,
        "name": "ОП 4672 КМ"
    },
    {
        "lat": 56.100463,
        "lon": 101.2638962,
        "id": 20235,
        "name": "ОП 276 КМ"
    },
    {
        "lat": 56.8270733,
        "lon": 105.2747318,
        "id": 20302,
        "name": "ОП 676 КМ"
    },
    {
        "lat": 52.1021196,
        "lon": 107.0815834,
        "id": 20511,
        "name": "ОП 5578 КМ"
    },
    {
        "lat": 56.8081303,
        "lon": 105.2836146,
        "id": 20303,
        "name": "ОП 679 КМ"
    },
    {
        "lat": 54.2763257,
        "lon": 101.5706633,
        "id": 20176,
        "name": "ОП 4882 км"
    },
    {
        "lat": 55.526411,
        "lon": 98.6484721,
        "id": 20113,
        "name": "ОП 4589 КМ"
    },
    {
        "lat": 56.7369178,
        "lon": 105.3976386,
        "id": 20307,
        "name": "ОП 690 КМ"
    },
    {
        "lat": 56.7443314,
        "lon": 105.454634,
        "id": 20309,
        "name": "ОП 694 КМ"
    },
    {
        "lat": 56.7370605,
        "lon": 105.5257881,
        "id": 20311,
        "name": "ОП 699 КМ"
    },
    {
        "lat": 56.1445878,
        "lon": 100.280773,
        "id": 20231,
        "name": "ОП 192 КМ"
    },
    {
        "lat": 54.8263431,
        "lon": 99.2138472,
        "id": 20136,
        "name": "ОП 4694 КМ"
    },
    {
        "lat": 55.8525866,
        "lon": 109.6917064,
        "id": 19915,
        "name": "ОП 1096 КМ"
    },
    {
        "lat": 54.173128,
        "lon": 101.7555724,
        "id": 20179,
        "name": "ОП 4899 КМ"
    },
    {
        "lat": 56.199073,
        "lon": 113.5148447,
        "id": 22245,
        "name": "ОП 54 КМ"
    },
    {
        "lat": 56.2772474,
        "lon": 113.342139,
        "id": 22417,
        "name": "ОП 16 КМ"
    },
    {
        "lat": 56.2620307,
        "lon": 113.3674516,
        "id": 22418,
        "name": "ОП 26 КМ"
    },
    {
        "lat": 56.3103403,
        "lon": 107.2563832,
        "id": 40239,
        "name": "МАРИКТА"
    },
    {
        "lat": 56.4662671,
        "lon": 106.8451273,
        "id": 40240,
        "name": "ТАКОВКА"
    },
    {
        "lat": 55.7824604,
        "lon": 108.1862247,
        "id": 40244,
        "name": "КАЛАКАЧАН"
    },
    {
        "lat": 56.6804134,
        "lon": 106.7102297,
        "id": 40245,
        "name": "ИРДЫКАН"
    },
    {
        "lat": 56.2464472,
        "lon": 107.3389828,
        "id": 40246,
        "name": "БИРЕЯ"
    },
    {
        "lat": 56.6006149,
        "lon": 104.1693945,
        "id": 22715,
        "name": "ОП 554 КМ"
    },
    {
        "lat": 52.3947993,
        "lon": 104.118103,
        "id": 22802,
        "name": "ПМС-45"
    },
    {
        "lat": 56.3655905,
        "lon": 114.6820049,
        "id": 22803,
        "name": "ОП 1459 КМ"
    },
    {
        "lat": 56.132791,
        "lon": 101.429152,
        "id": 22814,
        "name": "БАГУЛЬНАЯ II"
    },
    {
        "lat": 56.1162654,
        "lon": 101.4568165,
        "id": 22815,
        "name": "БАГУЛЬНАЯ III"
    },
    {
        "lat": 56.026661,
        "lon": 107.7071831,
        "id": 22863,
        "name": "ОП 914 КМ"
    },
    {
        "lat": 53.1588114,
        "lon": 103.0741408,
        "id": 22864,
        "name": "ОП 5053 КМ"
    },
    {
        "lat": 55.9545447,
        "lon": 110.597865,
        "id": 41457,
        "name": "ОП 1156 КМ"
    },
    {
        "lat": 51.9448129,
        "lon": 113.6075239,
        "id": 41467,
        "name": "ПИОНЕРСКАЯ"
    },
    {
        "lat": 54.9236675,
        "lon": 98.9789048,
        "id": 41469,
        "name": "ОП 4675 КМ"
    }
]